timestamp(unix),attitude_roll(radians),attitude_pitch(radians),attitude_yaw(radians),rotation_rate_x(radians/s),rotation_rate_y(radians/s),rotation_rate_z(radians/s),gravity_x(G),gravity_y(G),gravity_z(G),user_acc_x(G),user_acc_y(G),user_acc_z(G),magnetic_field_x(microteslas),magnetic_field_y(microteslas),magnetic_field_z(microteslas),latitude(degree),longitude(degree),altitude(meter),speed(m/s),course(degree),timestamp(unix),User Mark
,,,,,,,,,,,,,,,,1.303069,103.798836,17.741842,-1.000000,-1.000000,1501240150.434109,
,,,,,,,,,,,,,,,,1.303069,103.798836,17.741842,-1.000000,-1.000000,1501240147.020212,
,,,,,,,,,,,,,,,,1.303069,103.798836,17.741842,-1.000000,-1.000000,1501240150.436372,
,,,,,,,,,,,,,,,,1.303069,103.798836,17.741842,-1.000000,-1.000000,1501240150.436793,
1501240151.236950,0.069644,0.299183,-0.314052,-0.218785,-0.285975,0.030712,0.066497,-0.294739,-0.953261,0.001924,0.003739,0.001586,-19.358816,-35.247868,6.373459,,,,,,,
1501240152.236766,-0.082666,0.209976,-0.188705,0.002699,-0.254341,0.104735,-0.080758,-0.208436,-0.974696,0.036767,-0.011382,0.014689,-18.861792,-34.042046,7.245664,,,,,,,
1501240153.236580,0.037102,0.204361,-0.111741,0.000922,0.140640,0.004054,0.036321,-0.202942,-0.978517,-0.023016,-0.001068,0.030656,-22.164274,-32.505238,4.391123,,,,,,,
,,,,,,,,,,,,,,,,1.302727,103.798442,-2.033875,0.370000,319.218750,1501240152.936913,
,,,,,,,,,,,,,,,,1.302729,103.798443,-1.874237,0.370000,319.218750,1501240153.031930,
,,,,,,,,,,,,,,,,1.302729,103.798443,-1.874237,0.370000,319.218750,1501240153.031930,
,,,,,,,,,,,,,,,,1.302729,103.798443,-0.515747,0.000000,-1.000000,1501240154.005325,
1501240154.236385,0.014370,0.223580,-0.097726,-0.008183,0.028708,-0.036315,0.014012,-0.221722,-0.975009,0.000194,0.000623,-0.000836,-22.547544,-32.084049,5.417514,,,,,,,
1501240155.236233,-0.031282,0.261499,-0.057011,-0.023410,0.045748,0.066744,-0.030214,-0.258529,-0.965531,-0.007750,0.002563,0.004349,-23.497284,-30.973696,7.458911,,,,,,,
,,,,,,,,,,,,,,,,1.302729,103.798443,3.226105,0.000000,-1.000000,1501240155.001066,
,,,,,,,,,,,,,,,,1.302729,103.798443,3.228363,0.000000,-1.000000,1501240156.000010,
1501240156.236055,0.086953,0.273476,-0.096669,-0.207721,0.004323,-0.348263,0.083617,-0.270080,-0.959200,0.025926,-0.003159,-0.007795,-23.157475,-31.649542,5.400498,,,,,,,
,,,,,,,,,,,,,,,,1.302729,103.798443,3.074554,0.000000,-1.000000,1501240157.000008,
1501240157.235866,0.096937,0.203796,-0.104280,-0.110112,0.102667,-0.065854,0.094783,-0.202388,-0.974708,0.010274,0.004161,0.022987,-22.644112,-32.334690,2.973141,,,,,,,
,,,,,,,,,,,,,,,,1.302729,103.798443,3.017914,0.000000,-1.000000,1501240158.000138,
1501240158.235720,0.087923,0.195943,-0.105066,0.043305,-0.046321,0.007126,0.086129,-0.194692,-0.977076,0.000190,-0.006343,0.004755,-22.558947,-32.402348,2.882610,,,,,,,
,,,,,,,,,,,,,,,,1.302729,103.798443,2.783813,0.000000,-1.000000,1501240159.000099,
1501240159.235576,0.085359,0.271914,-0.047611,0.043591,0.182520,-0.043722,0.082123,-0.268576,-0.959751,-0.003265,-0.000376,-0.008831,-24.572735,-30.643383,4.928607,,,,,,,
,,,,,,,,,,,,,,,,1.302729,103.798443,2.629303,0.000000,-1.000000,1501240160.000096,
1501240160.235417,0.079054,0.233815,-0.043682,0.049461,0.065317,-0.093696,0.076822,-0.231690,-0.969752,-0.037577,-0.029357,-0.022802,-24.576723,-30.796104,3.835656,,,,,,,
,,,,,,,,,,,,,,,,1.302729,103.798443,2.362915,0.000000,-1.000000,1501240161.000096,
1501240161.235262,0.047687,0.223875,-0.043303,-0.007681,-0.025893,0.004059,0.046479,-0.222009,-0.973936,-0.008286,-0.001028,0.003523,-24.427816,-30.854427,4.291107,,,,,,,
,,,,,,,,,,,,,,,,1.302729,103.798443,14.829834,0.000000,0.000000,1501240162.000115,
1501240162.235106,0.043240,0.151632,-0.145878,-0.374643,0.216526,0.068433,0.042731,-0.151052,-0.987602,-0.062506,-0.037318,-0.025124,-20.960585,-33.463478,2.824369,,,,,,,
,,,,,,,,,,,,,,,,1.302729,103.798443,14.567322,0.000000,0.000000,1501240163.000073,
1501240163.234957,0.026803,0.189678,-0.128964,-0.271680,-0.163995,0.243302,0.026319,-0.188543,-0.981712,0.002993,-0.007838,0.022880,-21.476728,-32.983383,4.239578,,,,,,,
,,,,,,,,,,,,,,,,1.302729,103.798443,13.990479,0.000000,0.000000,1501240164.000055,
1501240164.234826,-0.083326,0.262119,-0.226214,-0.466356,0.053594,-0.100418,-0.080387,-0.259128,-0.962492,0.083286,-0.040387,0.005186,-17.416464,-34.338783,9.200123,,,,,,,
,,,,,,,,,,,,,,,,1.302729,103.798443,13.149780,0.000000,0.000000,1501240164.999987,
1501240165.234678,-0.053485,0.274158,-0.148707,0.102698,-0.130660,-0.070579,-0.051463,-0.270737,-0.961277,0.005686,0.004379,0.012562,-20.365372,-32.818150,8.680338,,,,,,,
,,,,,,,,,,,,,,,,1.302729,103.798443,12.759949,0.000000,0.000000,1501240165.999988,
1501240166.234529,0.019334,0.137200,-0.157202,0.579805,-0.005598,-0.072305,0.019152,-0.136770,-0.990418,-0.040315,0.020086,-0.023376,-20.550951,-33.733349,2.616676,,,,,,,
,,,,,,,,,,,,,,,,1.302729,103.798443,11.597290,0.000000,0.000000,1501240166.999987,
1501240167.234394,-0.053561,0.194978,-0.099603,-0.065130,-0.111374,0.172873,-0.052521,-0.193745,-0.979645,0.011551,0.025670,0.018646,-22.082090,-32.302395,6.005352,,,,,,,
,,,,,,,,,,,,,,,,1.302729,103.798443,10.768433,0.000000,0.000000,1501240167.999987,
1501240168.234252,0.002643,0.263669,-0.114530,-0.040330,0.053633,0.048654,0.002552,-0.260625,-0.965437,0.005489,0.006764,-0.006396,-21.891344,-32.210583,7.097543,,,,,,,
,,,,,,,,,,,,,,,,1.302729,103.798443,10.316650,0.000000,0.000000,1501240168.999990,
1501240169.234164,0.040028,0.259895,-0.057099,0.558569,-0.304384,-0.226442,0.038674,-0.256979,-0.965643,0.030723,-0.003412,0.017965,-24.052370,-30.945255,5.567968,,,,,,,
,,,,,,,,,,,,,,,,1.302729,103.798443,9.847351,0.000000,0.000000,1501240169.999987,
1501240170.234004,-0.031059,0.338701,-0.127148,0.248647,0.164879,0.198011,-0.029290,-0.332262,-0.942732,-0.018729,0.030001,0.048659,-21.141882,-31.866524,10.230977,,,,,,,
,,,,,,,,,,,,,,,,1.302729,103.798443,9.559265,0.000000,0.000000,1501240170.999988,
1501240171.233885,-1.732099,0.073789,0.668432,4.301556,-5.816103,5.619231,-0.984333,-0.073722,0.160167,0.309498,0.752174,-0.075877,4.410129,-8.674316,38.372314,,,,,,,
1501240172.323720,-1.398786,-0.677544,1.157341,-0.218881,-0.369275,1.512207,-0.767617,0.626881,-0.133356,-0.382468,-0.155171,0.199564,-0.871963,9.750103,38.357563,,,,,,,
,,,,,,,,,,,,,,,,1.302715,103.798474,6.320038,0.400000,330.468750,1501240171.999988,
,,,,,,,,,,,,,,,,1.302715,103.798474,8.567932,0.000000,284.414062,1501240172.999987,
1501240173.323619,0.327705,-1.531743,-3.055152,0.045985,0.022076,-0.008503,0.012567,0.999238,-0.036966,0.136023,0.011611,0.061242,17.578238,3.166644,35.328533,,,,,,,
,,,,,,,,,,,,,,,,1.302708,103.798476,10.261414,0.400000,247.500000,1501240173.999987,
1501240174.323502,1.266462,-1.457727,-2.140406,-0.018263,-0.021296,-0.006104,0.107644,0.993614,-0.033810,0.011466,0.039741,0.004315,16.834515,0.948882,35.816563,,,,,,,
,,,,,,,,,,,,,,,,1.302708,103.798470,9.931824,0.410000,267.539062,1501240174.999987,
1501240175.323355,1.483433,-1.450886,-1.935633,0.002035,0.004160,0.007678,0.119167,0.992819,-0.010437,0.006413,0.034830,0.004685,16.365208,-0.037451,36.045887,,,,,,,
,,,,,,,,,,,,,,,,1.302713,103.798468,6.817047,0.620000,304.804688,1501240175.999988,
1501240176.323256,1.506523,-1.448116,-1.918752,-0.009661,0.000982,-0.006304,0.122120,0.992484,-0.007860,0.002284,0.036202,0.003176,16.134634,-0.152794,36.149380,,,,,,,
,,,,,,,,,,,,,,,,1.302716,103.798483,9.216125,0.620000,304.804688,1501240176.999987,
1501240177.323109,1.482459,-1.445615,-1.947592,0.008394,0.005793,0.006032,0.124368,0.992175,-0.011015,0.004615,0.035810,-0.000658,15.971987,-0.057862,36.221817,,,,,,,
,,,,,,,,,,,,,,,,1.302716,103.798483,9.308594,0.000000,304.804688,1501240177.999988,
1501240178.322994,1.564868,-1.448731,-1.857632,-0.018531,-0.013693,-0.008031,0.121760,0.992559,-0.000722,0.005987,0.034052,0.009114,16.214533,-0.399953,36.111721,,,,,,,
,,,,,,,,,,,,,,,,1.302716,103.798483,10.639160,0.000000,350.507812,1501240178.999988,
1501240179.322933,1.585571,-1.445109,-1.860192,0.016690,0.023176,0.001350,0.125343,0.992112,0.001852,0.001045,0.034317,0.002100,15.386193,-0.474656,36.471455,,,,,,,
,,,,,,,,,,,,,,,,1.302716,103.798483,10.639160,0.000000,350.507812,1501240178.999988,
,,,,,,,,,,,,,,,,1.302716,103.798483,14.448425,0.000000,86.132812,1501240179.999987,
1501240180.322807,1.589150,-1.447336,-1.861372,-0.006869,0.001541,-0.005102,0.123126,0.992388,0.002260,0.004544,0.034223,0.004057,15.201509,-0.420560,36.549488,,,,,,,
,,,,,,,,,,,,,,,,1.302716,103.798483,14.363831,0.000000,86.132812,1501240180.999989,
1501240181.322684,1.594000,-1.444984,-1.854388,0.001461,-0.002478,0.002283,0.125447,0.992096,0.002911,0.010005,0.035644,0.001910,15.274365,-0.492186,36.518200,,,,,,,
,,,,,,,,,,,,,,,,1.302716,103.798483,14.308838,0.000000,86.132812,1501240181.999986,
1501240182.322549,1.598103,-1.445145,-1.851916,0.001320,0.003299,0.000203,0.125274,0.992116,0.003422,0.003785,0.037013,0.003750,15.217101,-0.498556,36.542019,,,,,,,
,,,,,,,,,,,,,,,,1.302716,103.798483,14.250610,0.000000,86.132812,1501240182.999988,
1501240183.322398,1.621335,-1.447169,-1.830015,-0.000199,-0.029987,-0.003002,0.123155,0.992368,0.006229,0.006392,0.035601,0.003201,15.145866,-0.561757,36.570683,,,,,,,
,,,,,,,,,,,,,,,,1.302716,103.798483,14.214661,0.000000,86.132812,1501240183.999987,
1501240184.322307,1.674795,-1.448077,-1.786162,-0.007741,-0.006751,-0.003945,0.121750,0.992480,0.012708,-0.014603,0.039030,0.009173,14.797484,-0.740587,36.709858,,,,,,,
,,,,,,,,,,,,,,,,1.302716,103.798483,14.190369,0.000000,86.132812,1501240184.999987,
1501240185.322163,1.721465,-1.447225,-1.738166,-0.011914,0.016566,-0.004801,0.121861,0.992375,0.018501,0.001873,0.037517,0.004418,14.836657,-0.958348,36.688999,,,,,,,
,,,,,,,,,,,,,,,,1.302716,103.798483,14.185608,0.000000,86.132812,1501240185.999988,
1501240186.322042,1.705906,-1.448230,-1.751961,0.015769,-0.005208,0.004899,0.121146,0.992498,0.016468,0.004892,0.037531,0.001308,14.899712,-0.891198,36.665134,,,,,,,
,,,,,,,,,,,,,,,,1.302716,103.798483,14.174988,0.000000,86.132812,1501240186.999987,
1501240187.321909,1.557195,-1.443724,-1.890161,0.011501,-0.013951,0.004008,0.126719,0.991937,-0.001724,0.005986,0.037741,0.001266,15.317649,-0.352690,36.501682,,,,,,,
,,,,,,,,,,,,,,,,1.302716,103.798483,14.701477,0.000000,86.132812,1501240187.999988,
1501240188.321770,1.533081,-1.442827,-1.912789,-0.002811,0.006508,-0.000254,0.127530,0.991823,-0.004812,0.005420,0.036589,0.002172,15.384862,-0.254639,36.474220,,,,,,,
,,,,,,,,,,,,,,,,1.302716,103.798483,14.526550,0.000000,86.132812,1501240188.999987,
1501240189.321645,1.595221,-1.447635,-1.847810,-0.015416,-0.010021,-0.005691,0.122813,0.992425,0.003000,0.008092,0.034537,0.001562,15.466604,-0.476950,36.437401,,,,,,,
,,,,,,,,,,,,,,,,1.302716,103.798483,14.423645,0.000000,86.132812,1501240189.999988,
1501240190.321507,1.687228,-1.448910,-1.760662,0.001223,0.002998,0.001736,0.120761,0.992581,0.014124,0.006146,0.034931,0.002721,15.271316,-0.832232,36.513309,,,,,,,
,,,,,,,,,,,,,,,,1.302716,103.798483,14.329346,0.000000,86.132812,1501240190.999989,
1501240191.321352,1.712088,-1.448212,-1.737287,-0.001861,0.005268,-0.000206,0.121059,0.992496,0.017219,0.003666,0.034756,0.003410,15.210711,-0.943814,36.535885,,,,,,,
,,,,,,,,,,,,,,,,1.302716,103.798483,14.266174,0.000000,86.132812,1501240191.999987,
1501240192.321215,1.691329,-1.448083,-1.759601,-0.005944,-0.005369,-0.005381,0.121517,0.992480,0.014718,0.001835,0.037015,-0.001794,15.156282,-0.856586,36.560642,,,,,,,
,,,,,,,,,,,,,,,,1.302716,103.798483,14.227173,0.000000,86.132812,1501240192.999988,
1501240193.321069,1.777415,-1.453543,-1.663442,0.000454,-0.018286,-0.002149,0.114497,0.993134,0.024000,0.006658,0.035110,0.006960,15.505108,-1.119900,36.406937,,,,,,,
,,,,,,,,,,,,,,,,1.302716,103.798483,14.227356,0.000000,86.132812,1501240193.999986,
1501240194.320936,1.645897,-1.452704,-1.788629,0.025199,-0.009773,0.008688,0.117486,0.993035,0.008840,0.002479,0.032859,0.004267,15.765448,-0.647854,36.306454,,,,,,,
,,,,,,,,,,,,,,,,1.302716,103.798483,14.212830,0.000000,86.132812,1501240194.999987,
1501240195.320781,1.529363,-1.449950,-1.899805,0.005092,0.003503,-0.005933,0.120449,0.992707,-0.004994,0.002430,0.039459,-0.000042,15.989993,-0.218736,36.213257,,,,,,,
,,,,,,,,,,,,,,,,1.302716,103.798483,14.178589,0.000000,86.132812,1501240195.999987,
1501240196.320631,1.615787,-1.461503,-1.817290,-0.027751,0.056184,-0.014235,0.108966,0.994033,0.004906,0.010556,0.037857,0.000084,15.849718,-0.364079,36.273701,,,,,,,
,,,,,,,,,,,,,,,,1.302716,103.798483,14.122559,0.000000,86.132812,1501240196.999987,
1501240197.320450,1.656212,-1.462003,-1.785647,-0.009159,-0.008613,-0.002291,0.108183,0.994088,0.009263,0.002474,0.036292,-0.002214,15.502995,-0.486352,36.421810,,,,,,,
,,,,,,,,,,,,,,,,1.302716,103.798483,14.096497,0.000000,86.132812,1501240197.999987,
1501240198.320320,1.731025,-1.459220,-1.711020,0.005902,0.005962,0.011920,0.109918,0.993782,0.017764,0.004950,0.034569,0.003003,15.482673,-0.820472,36.424458,,,,,,,
,,,,,,,,,,,,,,,,1.302716,103.798483,14.068848,0.000000,86.132812,1501240198.999987,
1501240199.320195,1.633374,-1.451594,-1.809556,0.009328,0.003582,0.005720,0.118687,0.992904,0.007437,0.002544,0.035523,-0.001700,15.466218,-0.582760,36.436028,,,,,,,
,,,,,,,,,,,,,,,,1.302716,103.798483,14.055115,0.000000,86.132812,1501240199.999988,
1501240200.320019,1.599102,-1.451131,-1.841519,0.006005,-0.010441,0.002322,0.119333,0.992849,0.003379,0.006629,0.035807,-0.001212,15.555817,-0.452647,36.399715,,,,,,,
,,,,,,,,,,,,,,,,1.302716,103.798483,14.052307,0.000000,86.132812,1501240200.999988,
1501240201.319894,1.612730,-1.459673,-1.807525,0.040633,-0.060716,-0.039541,0.110797,0.993832,0.004649,0.021283,0.029148,0.022329,16.271221,-0.433553,36.085827,,,,,,,
,,,,,,,,,,,,,,,,1.302716,103.798483,14.044006,0.000000,86.132812,1501240201.999988,
1501240202.319745,-0.299560,-1.550280,2.676856,0.215919,-0.072426,0.053494,-0.006054,0.999790,-0.019601,-0.010365,-0.003681,0.001291,20.174665,2.250741,33.985950,,,,,,,
,,,,,,,,,,,,,,,,1.302716,103.798483,14.030090,0.000000,86.132812,1501240202.999987,
1501240203.319592,-3.085941,-1.242180,-0.042960,0.860588,1.002114,0.859115,-0.017951,0.946490,0.322234,0.057502,-0.227938,0.283601,31.870621,-17.474621,11.102554,,,,,,,
,,,,,,,,,,,,,,,,1.302716,103.798483,14.530884,0.000000,86.132812,1501240203.999987,
1501240204.319440,-2.601960,-1.259508,-0.218968,-1.990074,-3.331840,-1.482830,-0.157376,0.951940,0.262761,-0.257679,0.225444,-0.539601,15.664504,-18.786173,29.087255,,,,,,,
,,,,,,,,,,,,,,,,1.302712,103.798518,14.510742,0.770000,358.242188,1501240204.999987,
1501240205.319287,0.743024,-1.350086,2.927342,-0.686605,0.052422,-0.444393,0.148105,0.975742,-0.161220,-0.332004,0.392529,0.398601,3.386620,1.068348,40.566158,,,,,,,
,,,,,,,,,,,,,,,,1.302714,103.798523,14.318176,0.770000,87.890625,1501240205.999988,
1501240206.319134,0.502267,-1.464753,2.743882,1.087534,0.406670,0.804214,0.050955,0.994383,-0.092772,-0.291540,0.022570,0.135191,6.028968,-2.394535,40.201267,,,,,,,
,,,,,,,,,,,,,,,,1.302700,103.798523,12.456421,0.770000,8.437500,1501240206.999987,
1501240207.318971,2.976549,-1.454901,-0.907039,1.147439,1.264063,-1.424739,0.018998,0.993292,0.114065,0.123076,0.805414,-0.219595,12.113266,-10.951929,38.380276,,,,,,,
,,,,,,,,,,,,,,,,1.302697,103.798530,12.625488,1.030000,124.453125,1501240207.999987,
1501240208.318816,3.107880,-1.226629,-0.389677,0.132083,2.574897,1.061582,0.011373,0.941357,0.337222,-0.205755,0.616413,0.004179,26.227972,-16.297184,28.039558,,,,,,,
,,,,,,,,,,,,,,,,1.302678,103.798539,12.024963,1.030000,132.187500,1501240208.999987,
1501240209.318688,-3.070310,-1.125302,-0.483807,2.101830,-0.443707,0.681103,-0.030690,0.902398,0.429810,0.663182,-0.295281,-0.191269,19.441687,-20.488594,30.691366,,,,,,,
,,,,,,,,,,,,,,,,1.302673,103.798541,12.402222,0.420000,132.187500,1501240209.999988,
1501240210.318526,0.756736,-1.550990,-2.978722,-0.093651,0.705728,0.133738,0.013597,0.999804,-0.014400,0.034300,-0.036593,-0.157857,18.206810,-3.813846,36.569550,,,,,,,
,,,,,,,,,,,,,,,,1.302673,103.798541,12.733887,0.000000,132.187500,1501240210.999987,
1501240211.318366,0.873936,-1.454420,-2.930737,0.005848,-0.055082,0.040847,0.089043,0.993236,-0.074523,0.014747,0.036076,-0.006959,15.105783,-2.684283,38.052277,,,,,,,
,,,,,,,,,,,,,,,,1.302673,103.798541,12.355774,0.000000,132.187500,1501240211.999988,
1501240212.318207,1.162116,-1.478909,-2.639070,-0.032868,0.038876,-0.015361,0.084201,0.995781,-0.036464,0.005353,0.031562,-0.001240,15.220524,-4.068089,37.883400,,,,,,,
,,,,,,,,,,,,,,,,1.302673,103.798541,12.152161,0.000000,131.835938,1501240212.999988,
1501240213.318023,1.309041,-1.494119,-2.505505,-0.031833,0.022866,0.000474,0.073993,0.997062,-0.019823,0.002637,0.035913,0.000490,14.743023,-4.494742,38.023754,,,,,,,
,,,,,,,,,,,,,,,,1.302672,103.798543,12.532410,0.160000,131.835938,1501240213.999987,
1501240214.317864,1.155959,-1.489060,-2.667840,0.017311,0.013968,0.006768,0.074720,0.996661,-0.032906,-0.006880,0.037945,-0.003501,14.402773,-4.001003,38.208870,,,,,,,
,,,,,,,,,,,,,,,,1.302672,103.798543,13.305969,0.000000,132.187500,1501240214.999988,
1501240215.317729,1.212164,-1.490880,-2.607513,0.002792,0.003871,0.012095,0.074752,0.996808,-0.028020,0.005784,0.030657,0.002095,14.548763,-4.188820,38.133354,,,,,,,
,,,,,,,,,,,,,,,,1.302672,103.798543,12.655945,0.000000,311.132812,1501240215.999987,
1501240216.317533,1.315513,-1.493107,-2.504879,-0.003439,-0.001714,-0.002773,0.075096,0.996984,-0.019598,-0.000725,0.036876,-0.000528,14.505819,-4.511640,38.112881,,,,,,,
,,,,,,,,,,,,,,,,1.302672,103.798543,12.807617,0.000000,131.835938,1501240216.999988,
1501240217.317374,1.279071,-1.491406,-2.540169,0.005367,-0.006173,0.001450,0.075956,0.996850,-0.022809,0.001055,0.036338,0.000669,14.549469,-4.409154,38.108242,,,,,,,
,,,,,,,,,,,,,,,,1.302672,103.798543,12.686035,0.000000,131.835938,1501240217.999988,
1501240218.317226,1.288385,-1.494388,-2.529324,-0.000748,0.003392,-0.001782,0.073310,0.997082,-0.021272,-0.004417,0.033527,0.000978,14.619345,-4.434336,38.078568,,,,,,,
,,,,,,,,,,,,,,,,1.302672,103.798543,12.561218,0.000000,131.835938,1501240218.999987,
1501240219.317045,1.452523,-1.499517,-2.354166,-0.025992,0.045131,-0.000618,0.070722,0.997461,-0.008404,0.007464,0.039084,0.010693,15.049300,-4.896518,37.853775,,,,,,,
,,,,,,,,,,,,,,,,1.302672,103.798543,12.433899,0.000000,131.835938,1501240219.999987,
1501240220.316875,1.584667,-1.504949,-2.237006,0.002599,-0.042155,-0.000585,0.065793,0.997833,0.000913,0.001666,0.035508,0.000720,14.461389,-5.158129,38.047703,,,,,,,
,,,,,,,,,,,,,,,,1.302672,103.798543,12.336243,0.000000,131.835938,1501240220.999988,
1501240221.316704,1.359722,-1.497159,-2.441799,0.023608,-0.004057,0.005977,0.071938,0.997290,-0.015414,0.003441,0.035852,0.003054,15.228893,-4.685353,37.808647,,,,,,,
,,,,,,,,,,,,,,,,1.302672,103.798543,12.252319,0.000000,131.835938,1501240221.999988,
1501240222.316527,1.083354,-1.489731,-2.627975,0.025854,-0.183718,0.026080,0.071545,0.996716,-0.037927,0.002994,0.036609,0.002542,16.904377,-5.107607,38.012257,,,,,,,
,,,,,,,,,,,,,,,,1.302672,103.798543,12.209961,0.000000,131.835938,1501240222.999988,
1501240223.316352,1.205492,-1.492009,-2.485025,0.002239,0.171128,0.007193,0.073512,0.996898,-0.028116,0.001195,0.029515,-0.000769,17.759556,-5.578875,37.553318,,,,,,,
,,,,,,,,,,,,,,,,1.302672,103.798543,12.197937,0.000000,131.835938,1501240223.999988,
1501240224.316193,1.315288,-1.500425,-2.456275,-0.025830,-0.094764,-0.019504,0.068031,0.997525,-0.017771,0.005806,0.035129,-0.006140,14.647960,-5.632285,38.865047,,,,,,,
,,,,,,,,,,,,,,,,1.302672,103.798543,12.169067,0.000000,131.835938,1501240224.999988,
1501240225.316013,1.517808,-1.499844,-2.201849,-0.008322,0.008532,-0.005679,0.070793,0.997484,-0.003755,0.001777,0.035979,-0.001082,16.619446,-6.361601,37.948666,,,,,,,
,,,,,,,,,,,,,,,,1.302672,103.798543,12.140747,0.000000,131.835938,1501240225.999987,
1501240226.315836,1.560576,-1.502649,-2.171282,0.006494,0.005369,0.004897,0.068091,0.997679,-0.000696,0.003687,0.036348,0.001322,16.168659,-6.402728,38.136028,,,,,,,
,,,,,,,,,,,,,,,,1.302672,103.798543,12.117676,0.000000,131.835938,1501240226.999987,
1501240227.315658,1.638728,-1.505398,-2.091133,0.001040,-0.001780,-0.002579,0.065201,0.997862,0.004436,0.004012,0.034731,0.001362,16.255095,-6.556322,38.073135,,,,,,,
,,,,,,,,,,,,,,,,1.302672,103.798543,12.108032,0.000000,131.835938,1501240227.999988,
1501240228.315478,2.246067,-1.496741,-1.520431,-0.442640,0.052139,-0.120912,0.057750,0.997259,0.046250,-0.023540,0.041788,0.081008,14.862720,-7.770363,38.412216,,,,,,,
,,,,,,,,,,,,,,,,1.302672,103.798543,13.478760,0.000000,131.835938,1501240228.999988,
1501240229.315275,-2.926222,-1.422428,-0.382016,1.286750,0.882750,0.646969,-0.031592,0.989014,0.144409,0.299978,-0.449936,0.048065,16.738960,-10.449516,36.978264,,,,,,,
,,,,,,,,,,,,,,,,1.302672,103.798543,13.187744,0.000000,131.835938,1501240229.999988,
1501240230.315111,3.050165,-1.213341,-0.481653,-0.254553,2.567059,0.062834,0.031945,0.936790,0.348430,0.370688,1.064522,-0.344707,23.823322,-17.568626,29.674400,,,,,,,
,,,,,,,,,,,,,,,,1.302672,103.798543,12.826172,0.000000,141.679688,1501240230.999988,
1501240231.314919,3.136930,-1.260027,-0.274212,1.711685,-0.304049,1.679159,0.001426,0.952099,0.305788,0.259835,-0.516979,0.119475,27.989807,-14.732084,27.501154,,,,,,,
,,,,,,,,,,,,,,,,1.302661,103.798569,12.597351,0.710000,156.445312,1501240231.999987,
1501240232.314760,-3.083641,-0.986013,-0.222110,-0.077980,-2.025022,-0.713977,-0.031973,0.833832,0.551092,0.257589,-0.710647,-0.411337,27.558073,-20.869308,23.702358,,,,,,,
,,,,,,,,,,,,,,,,1.302655,103.798580,12.916260,1.060000,149.765625,1501240232.999988,
1501240233.314578,-2.855664,-1.307753,-0.422312,-2.296029,-2.784599,-1.151792,-0.073338,0.965603,0.249464,0.790639,0.579273,-0.512311,10.931983,-12.354777,37.984898,,,,,,,
,,,,,,,,,,,,,,,,1.302647,103.798587,12.572327,1.060000,151.875000,1501240233.999988,
1501240234.314414,0.650804,-1.372543,2.984465,-0.275614,0.202451,-0.059364,0.119322,0.980412,-0.156699,-0.174391,0.203105,0.296057,7.196963,1.061149,40.768604,,,,,,,
,,,,,,,,,,,,,,,,1.302641,103.798593,12.480103,0.930000,121.640625,1501240234.999988,
1501240235.314239,2.589240,-1.366839,-0.857000,0.614380,1.489892,-0.574076,0.106274,0.979273,0.172426,-0.247952,0.132452,0.049086,25.357025,-13.071442,30.019327,,,,,,,
,,,,,,,,,,,,,,,,1.302637,103.798596,12.230286,0.790000,146.601562,1501240235.999988,
1501240236.314066,0.750917,-1.511419,-3.032257,0.093281,-0.053202,0.124785,0.040490,0.998238,-0.043383,0.019981,0.040031,-0.005766,13.774884,-3.468587,38.900169,,,,,,,
,,,,,,,,,,,,,,,,1.302633,103.798597,12.587219,0.600000,151.875000,1501240236.999987,
1501240237.313865,1.288359,-1.480578,-2.524904,0.004428,-0.004708,-0.005658,0.086526,0.995933,-0.025110,0.002478,0.033547,0.004190,12.358079,-4.692323,39.246162,,,,,,,
,,,,,,,,,,,,,,,,1.302633,103.798597,12.306030,0.000000,151.875000,1501240237.999987,
1501240238.313684,1.150031,-1.483687,-2.650225,0.011871,-0.004740,-0.005693,0.079411,0.996208,-0.035536,0.004940,0.035209,0.003233,12.922804,-4.241197,39.115406,,,,,,,
,,,,,,,,,,,,,,,,1.302633,103.798597,12.490479,0.000000,151.875000,1501240238.999988,
1501240239.313523,1.043150,-1.486547,-2.753010,-0.010596,-0.008808,-0.009927,0.072705,0.996453,-0.042370,-0.000043,0.036597,0.000637,13.122770,-3.900088,39.084316,,,,,,,
,,,,,,,,,,,,,,,,1.302624,103.798596,12.386475,0.160000,151.875000,1501240239.999988,
1501240240.313339,1.024714,-1.490509,-2.759647,0.003716,-0.010765,-0.001327,0.068537,0.996779,-0.041652,0.007162,0.031343,-0.001164,13.591494,-3.915707,38.922234,,,,,,,
,,,,,,,,,,,,,,,,1.302624,103.798596,13.458740,0.000000,196.875000,1501240240.999987,
1501240241.313163,1.057623,-1.489882,-2.734095,0.007512,-0.016639,-0.002159,0.070415,0.996728,-0.039681,0.005391,0.034766,-0.001320,13.301373,-3.992612,39.014530,,,,,,,
,,,,,,,,,,,,,,,,1.302624,103.798596,13.203735,0.000000,196.875000,1501240241.999987,
1501240242.312991,1.045911,-1.489786,-2.751087,0.001944,0.001818,0.007545,0.070028,0.996720,-0.040551,0.001871,0.034636,-0.000236,13.103039,-3.934787,39.087456,,,,,,,
,,,,,,,,,,,,,,,,1.302624,103.798596,12.956909,0.000000,196.875000,1501240242.999988,
1501240243.312792,1.123524,-1.494186,-2.670780,-0.002609,-0.006598,0.003328,0.069006,0.997067,-0.033102,0.003168,0.032856,-0.000864,13.198777,-4.219275,39.025524,,,,,,,
,,,,,,,,,,,,,,,,1.302624,103.798596,12.791443,0.000000,196.875000,1501240243.999988,
1501240244.312639,1.237175,-1.498608,-2.563066,0.004887,0.001816,0.004393,0.068149,0.997396,-0.023619,-0.000034,0.034419,0.002211,12.964178,-4.562383,39.065536,,,,,,,
,,,,,,,,,,,,,,,,1.302624,103.798596,12.684692,0.000000,196.875000,1501240244.999987,
1501240245.312464,1.251175,-1.497535,-2.551602,0.003185,0.018716,0.006538,0.069489,0.997318,-0.022999,0.001785,0.035962,0.000614,12.860615,-4.596261,39.095783,,,,,,,
,,,,,,,,,,,,,,,,1.302624,103.798596,12.614319,0.000000,196.875000,1501240245.999988,
1501240246.312274,1.239701,-1.500011,-2.566118,0.004521,0.011003,0.004336,0.066885,0.997496,-0.022992,0.002177,0.036760,-0.001239,12.758689,-4.557112,39.133743,,,,,,,
,,,,,,,,,,,,,,,,1.302624,103.798596,12.563477,0.000000,196.875000,1501240246.999987,
1501240247.312098,1.187518,-1.497852,-2.616096,0.003568,-0.006310,-0.001031,0.067591,0.997341,-0.027254,0.002996,0.033665,-0.000486,12.838214,-4.404452,39.125217,,,,,,,
,,,,,,,,,,,,,,,,1.302624,103.798596,12.527893,0.000000,196.875000,1501240247.999988,
1501240248.311930,1.116116,-1.498726,-2.683139,0.010832,-0.025692,-0.001133,0.064692,0.997404,-0.031624,0.002630,0.034365,0.001503,13.023908,-4.207955,39.085453,,,,,,,
,,,,,,,,,,,,,,,,1.302624,103.798596,12.507690,0.000000,196.875000,1501240248.999987,
1501240249.311744,1.042008,-1.496283,-2.745813,0.005324,-0.001105,0.000982,0.064277,0.997225,-0.037557,-0.002586,0.033643,0.002629,13.481141,-4.006831,38.951324,,,,,,,
,,,,,,,,,,,,,,,,1.302624,103.798596,12.492432,0.000000,196.875000,1501240249.999988,
1501240250.311589,1.077607,-1.501710,-2.695856,-0.007918,0.000472,0.001011,0.060804,0.997615,-0.032682,-0.002302,0.034063,0.000654,14.046022,-4.186875,38.732170,,,,,,,
,,,,,,,,,,,,,,,,1.302624,103.798596,12.485840,0.000000,196.875000,1501240250.999988,
1501240251.311410,1.121577,-1.506752,-2.651767,0.004507,-0.015945,-0.002142,0.057651,0.997950,-0.027793,0.001691,0.034353,-0.000009,14.057554,-4.335088,38.711670,,,,,,,
,,,,,,,,,,,,,,,,1.302624,103.798596,12.487305,0.000000,196.875000,1501240251.999987,
1501240252.311227,1.134451,-1.509075,-2.639403,-0.002817,0.003027,-0.000950,0.055903,0.998096,-0.026069,-0.000193,0.034283,0.001151,14.048994,-4.371596,38.710674,,,,,,,
,,,,,,,,,,,,,,,,1.302624,103.798596,13.368530,0.000000,196.875000,1501240252.999987,
1501240253.311049,1.154034,-1.508179,-2.620450,0.000448,-0.000845,0.002331,0.057220,0.998040,-0.025331,0.001541,0.036857,-0.002516,14.015817,-4.421880,38.716988,,,,,,,
,,,,,,,,,,,,,,,,1.302624,103.798596,13.169861,0.000000,196.875000,1501240253.999987,
1501240254.310884,1.117255,-1.506519,-2.658828,0.003804,0.010029,0.005538,0.057739,0.997935,-0.028144,0.003189,0.036260,-0.001443,13.961159,-4.315757,38.748703,,,,,,,
,,,,,,,,,,,,,,,,1.302624,103.798596,13.036133,0.000000,196.875000,1501240254.999987,
1501240255.310701,1.148305,-1.505324,-2.630222,0.002669,0.001619,0.004404,0.059672,0.997857,-0.026827,0.000646,0.035605,-0.001768,13.850721,-4.387711,38.780239,,,,,,,
,,,,,,,,,,,,,,,,1.302624,103.798596,12.948425,0.000000,196.875000,1501240255.999988,
1501240256.310521,1.168319,-1.502855,-2.612238,-0.023995,0.008159,0.001103,0.062464,0.997693,-0.026592,-0.002421,0.039554,-0.007374,13.759932,-4.424259,38.808399,,,,,,,
,,,,,,,,,,,,,,,,1.302624,103.798596,12.865662,0.000000,196.875000,1501240256.999987,
1501240257.310333,1.774754,-1.512046,-1.980159,-0.161088,-0.111462,-0.009686,0.057500,0.998275,0.011893,-0.018392,0.031404,0.076166,14.703993,-5.815053,38.275047,,,,,,,
,,,,,,,,,,,,,,,,1.302624,103.798596,12.758362,0.000000,196.875000,1501240257.999988,
1501240258.310135,-2.981110,-1.390037,-0.347945,1.933856,2.652505,1.048332,-0.028727,0.983708,0.177466,-0.178182,-0.293415,-0.460318,20.723129,-11.290547,34.030533,,,,,,,
,,,,,,,,,,,,,,,,1.302592,103.798600,13.476135,0.690000,143.789062,1501240258.999986,
1501240259.309968,3.017538,-1.166916,-0.358879,-1.316184,-3.298770,-0.798978,0.048627,0.919543,0.389970,0.412020,-0.403887,0.221557,26.512241,-17.135201,26.804619,,,,,,,
,,,,,,,,,,,,,,,,1.302583,103.798606,13.629517,0.690000,132.187500,1501240259.999987,
1501240260.309783,-3.083764,-1.019705,-0.269569,1.057291,-0.363816,-0.231857,-0.030263,0.851954,0.522742,0.285741,-0.693018,-0.322028,25.558084,-20.312714,25.479002,,,,,,,
,,,,,,,,,,,,,,,,1.302575,103.798612,12.958618,0.720000,132.187500,1501240260.999987,
1501240261.309600,-2.951331,-1.147069,-0.435097,-2.399410,-2.771306,-2.324499,-0.077757,0.911563,0.403742,-0.331835,0.467115,-0.223932,14.125143,-18.104204,34.463310,,,,,,,
,,,,,,,,,,,,,,,,1.302569,103.798617,12.703796,0.720000,131.835938,1501240261.999988,
1501240262.309410,-1.485176,-1.564359,1.018719,-3.222823,-2.197992,-1.759090,-0.006413,0.999979,-0.000550,-0.067409,0.223989,-0.404677,12.715194,-1.672445,38.892826,,,,,,,
,,,,,,,,,,,,,,,,1.302562,103.798625,12.763977,1.070000,131.835938,1501240262.999988,
1501240263.309234,0.694981,-1.429684,3.018216,0.527466,1.039134,0.593600,0.090064,0.990060,-0.108024,-0.074775,0.051184,0.199760,6.605390,0.954205,40.405243,,,,,,,
,,,,,,,,,,,,,,,,1.302556,103.798632,12.159729,1.070000,131.835938,1501240263.999987,
1501240264.309047,2.810049,-1.457238,-0.949505,0.084305,0.044157,0.191178,0.036884,0.993559,0.107143,0.148495,-0.015562,-0.404094,14.255674,-7.392166,37.673023,,,,,,,
,,,,,,,,,,,,,,,,1.302552,103.798635,12.510559,0.200000,131.835938,1501240264.999987,
1501240265.308875,1.059367,-1.552833,-2.719791,-0.069201,0.018483,-0.145262,0.015664,0.999839,-0.008791,-0.026315,0.012872,-0.055876,13.576206,-2.876711,38.529682,,,,,,,
,,,,,,,,,,,,,,,,1.302552,103.798635,12.362915,0.000000,131.835938,1501240265.999988,
1501240266.308693,-2.153755,-1.555291,0.355212,0.010256,0.024299,0.005360,-0.012944,0.999880,0.008535,-0.001796,0.036604,0.020288,13.856236,-2.899119,38.428181,,,,,,,
,,,,,,,,,,,,,,,,1.302552,103.798635,12.315186,0.000000,131.835938,1501240266.999987,
1501240267.308488,2.881032,-1.570155,-0.897656,0.015401,0.015530,0.053052,0.000165,1.000000,0.000620,0.019580,0.028946,0.001211,13.656095,-2.776436,38.508804,,,,,,,
,,,,,,,,,,,,,,,,1.302552,103.798635,12.062012,0.000000,131.835938,1501240267.999988,
1501240268.308321,3.059388,-1.564213,-0.723069,-0.003764,0.027791,-0.010963,0.000541,0.999978,0.006561,0.004022,0.026496,-0.002670,13.501199,-3.021007,38.544994,,,,,,,
,,,,,,,,,,,,,,,,1.302552,103.798635,12.140747,0.000000,131.835938,1501240268.999987,
1501240269.308162,-1.366659,-1.558110,1.132797,0.004132,-0.025815,0.007509,-0.012423,0.999920,-0.002572,-0.001280,0.036610,0.006570,13.476154,-2.489039,38.591751,,,,,,,
,,,,,,,,,,,,,,,,1.302552,103.798635,12.198486,0.000000,131.835938,1501240269.999987,
1501240270.307969,-1.408182,-1.550799,1.096294,0.003827,-0.019805,0.004267,-0.019732,0.999800,-0.003237,0.001589,0.034212,-0.002485,13.681448,-2.370350,38.526936,,,,,,,
,,,,,,,,,,,,,,,,1.302552,103.798635,12.719971,0.000000,131.835938,1501240270.999987,
1501240271.307764,-1.680143,-1.559749,0.819070,0.004792,0.015115,0.002550,-0.010981,0.999939,0.001206,-0.005315,0.036453,-0.001419,13.474483,-2.663555,38.580681,,,,,,,
,,,,,,,,,,,,,,,,1.302552,103.798635,12.622559,0.000000,131.835938,1501240271.999987,
1501240272.307603,-1.756086,-1.549894,0.735666,-0.008251,-0.021139,-0.007812,-0.020543,0.999782,0.003851,-0.023417,0.037328,0.000239,13.201021,-2.643609,38.676479,,,,,,,
,,,,,,,,,,,,,,,,1.302552,103.798635,12.512146,0.000000,131.835938,1501240272.999987,
1501240273.307389,-1.978052,-1.549931,0.546941,0.003567,0.002981,-0.000227,-0.019157,0.999782,0.008264,0.006615,0.033848,-0.000925,14.484269,-2.799945,38.203293,,,,,,,
,,,,,,,,,,,,,,,,1.302552,103.798635,12.426270,0.000000,131.835938,1501240273.999987,
1501240274.307215,-1.764414,-1.557803,0.737667,-0.021873,-0.015678,0.005409,-0.012751,0.999916,0.002500,-0.015692,0.032189,-0.009473,13.579123,-2.702467,38.541267,,,,,,,
,,,,,,,,,,,,,,,,1.302552,103.798635,12.382019,0.000000,131.835938,1501240274.999986,
1501240275.307030,-1.691950,-1.562727,0.812592,-0.005902,-0.040422,-0.007407,-0.008010,0.999967,0.000975,-0.003083,0.038515,-0.000212,13.658342,-2.689254,38.514191,,,,,,,
,,,,,,,,,,,,,,,,1.302552,103.798635,12.357849,0.000000,131.835938,1501240275.999987,
1501240276.306841,-2.202360,-1.558520,0.319485,-0.009007,-0.012871,0.008258,-0.009908,0.999925,0.007248,0.000371,0.028213,0.000000,14.332250,-2.891098,38.253803,,,,,,,
,,,,,,,,,,,,,,,,1.302552,103.798635,12.837341,0.000000,131.835938,1501240276.999988,
1501240277.306654,-1.698410,-1.561342,0.820987,0.000851,0.014035,-0.003516,-0.009377,0.999955,0.001203,-0.001396,0.033736,-0.001844,14.253516,-2.680433,38.298534,,,,,,,
,,,,,,,,,,,,,,,,1.302552,103.798635,12.697937,0.000000,131.835938,1501240277.999987,
1501240278.306446,-1.555134,-1.559118,0.971721,-0.001310,0.008083,0.008108,-0.011677,0.999932,-0.000183,-0.002575,0.035621,-0.001541,14.533176,-2.585393,38.199844,,,,,,,
,,,,,,,,,,,,,,,,1.302552,103.798635,12.619141,0.000000,131.835938,1501240278.999987,
1501240279.306299,-2.233174,-1.566985,0.292631,0.016555,-0.008729,0.019837,-0.003005,0.999993,0.002344,0.006927,0.032844,0.010718,14.465720,-2.799336,38.210365,,,,,,,
,,,,,,,,,,,,,,,,1.302552,103.798635,12.564270,0.000000,131.835938,1501240279.999987,
1501240280.306111,-1.665865,-1.560507,0.854108,-0.003689,-0.016930,0.007051,-0.010243,0.999947,0.000977,-0.001308,0.033576,0.002075,14.261700,-2.649015,38.297680,,,,,,,
,,,,,,,,,,,,,,,,1.302552,103.798635,12.522766,0.000000,131.835938,1501240280.999988,
1501240281.305917,-2.671061,-1.562915,-0.157011,0.001763,0.012916,0.010284,-0.003573,0.999969,0.007025,0.005724,0.033631,0.002039,14.023467,-2.975649,38.361610,,,,,,,
,,,,,,,,,,,,,,,,1.302552,103.798635,12.496460,0.000000,131.835938,1501240281.999987,
1501240282.305701,-2.213268,-1.564132,0.303356,0.012576,0.004161,0.004890,-0.005335,0.999978,0.003993,0.000544,0.033134,-0.000941,14.130286,-2.850486,38.331905,,,,,,,
,,,,,,,,,,,,,,,,1.302552,103.798635,13.124634,0.000000,131.835938,1501240282.999988,
1501240283.305543,-1.063236,-1.564156,1.451940,0.004216,0.004011,0.000566,-0.005803,0.999978,-0.003228,0.002019,0.036674,0.001793,14.069673,-2.553694,38.375103,,,,,,,
,,,,,,,,,,,,,,,,1.302552,103.798635,12.938660,0.000000,131.835938,1501240283.999987,
1501240284.305344,-1.272617,-1.565513,1.243014,-0.002328,0.007128,0.004800,-0.005050,0.999986,-0.001552,0.000808,0.030989,0.001781,14.085856,-2.627540,38.364178,,,,,,,
,,,,,,,,,,,,,,,,1.302552,103.798635,12.837708,0.000000,131.835938,1501240284.999987,
1501240285.305165,0.180348,-1.548904,2.690911,0.018189,0.079333,-0.005810,0.003927,0.999760,-0.021535,0.000834,0.039745,0.002584,13.912990,-1.995770,38.465195,,,,,,,
,,,,,,,,,,,,,,,,1.302552,103.798635,12.736023,0.000000,131.835938,1501240285.999986,
1501240286.304976,0.243123,-1.396217,2.675647,0.447847,0.109631,0.201613,0.041814,0.984800,-0.168586,-0.169561,0.049838,0.102698,10.870891,3.392579,39.337505,,,,,,,
,,,,,,,,,,,,,,,,1.302535,103.798645,12.836914,0.720000,131.835938,1501240286.999988,
1501240287.304785,-3.087921,-1.291269,-0.234686,1.685157,1.557173,2.236454,-0.014801,0.961186,0.275504,0.322632,-0.926075,-0.235404,26.437544,-10.911398,29.310802,,,,,,,
,,,,,,,,,,,,,,,,1.302541,103.798647,12.420532,0.720000,132.187500,1501240287.999988,
1501240288.304592,3.105509,-1.195549,-0.153535,-0.575904,-2.904844,-0.433538,0.013222,0.930417,0.366264,-0.279640,1.403415,0.367256,29.805202,-12.571195,25.114546,,,,,,,
,,,,,,,,,,,,,,,,1.302543,103.798652,12.017578,0.750000,137.460938,1501240288.999987,
1501240289.304409,-3.094023,-0.977916,-0.183953,0.505283,-1.268304,-0.845356,-0.026569,0.829335,0.558120,0.272770,-0.603230,-0.323455,27.810156,-18.478205,23.712372,,,,,,,
,,,,,,,,,,,,,,,,1.302553,103.798657,12.782471,0.460000,120.585938,1501240289.999987,
1501240290.304231,-2.874315,-1.293461,-0.544146,-0.962579,-2.102744,-1.106986,-0.072311,0.961788,0.264072,0.469665,0.283436,-0.653247,6.857005,-12.663195,38.337326,,,,,,,
,,,,,,,,,,,,,,,,1.302548,103.798663,13.221985,0.860000,107.578125,1501240290.999987,
1501240291.304034,0.730806,-1.370217,3.104825,-0.150069,-0.232858,-0.089802,0.132985,0.979951,-0.148359,-0.434544,0.290358,0.125776,8.327126,2.137836,40.040154,,,,,,,
,,,,,,,,,,,,,,,,1.302545,103.798670,12.703552,0.860000,119.882812,1501240291.999987,
1501240292.303827,-3.027726,-1.441408,-0.507454,-0.105533,0.288513,0.196086,-0.014660,0.991641,0.128192,0.023098,-0.006350,-0.094593,14.473395,-7.351562,37.597881,,,,,,,
,,,,,,,,,,,,,,,,1.302541,103.798676,12.469666,0.960000,119.531250,1501240292.999987,
1501240293.303651,3.120019,-1.248926,-0.751669,1.311564,0.637765,0.156966,0.006824,0.948645,0.316268,0.146740,-0.166892,-0.019835,10.073012,-15.448503,36.565056,,,,,,,
,,,,,,,,,,,,,,,,1.302541,103.798676,12.252563,0.000000,119.179688,1501240293.999987,
1501240294.303440,1.556414,-1.496445,-2.240164,-0.091799,0.134059,-0.025971,0.074275,0.997237,-0.001068,0.021870,0.040147,-0.009201,12.666866,-2.750214,38.821091,,,,,,,
,,,,,,,,,,,,,,,,1.302538,103.798679,12.399048,0.190000,119.531250,1501240294.999988,
1501240295.303249,1.350535,-1.493751,-2.428766,-0.003216,-0.019829,0.001431,0.075110,0.997033,-0.016817,0.006509,0.037604,-0.001448,13.209476,-2.275137,38.670708,,,,,,,
,,,,,,,,,,,,,,,,1.302538,103.798679,12.231506,0.000000,119.531250,1501240295.999987,
1501240296.303056,1.389963,-1.493318,-2.375044,-0.031826,-0.004770,-0.019744,0.076139,0.997000,-0.013921,-0.001813,0.033670,-0.001415,13.753983,-2.443329,38.470097,,,,,,,
,,,,,,,,,,,,,,,,1.302538,103.798679,12.029358,0.000000,119.531250,1501240296.999987,
1501240297.302832,1.487430,-1.496145,-2.275851,0.008703,0.010926,0.004644,0.074323,0.997215,-0.006210,0.005328,0.029564,-0.001663,13.822289,-2.727225,38.426514,,,,,,,
,,,,,,,,,,,,,,,,1.302538,103.798679,12.298523,0.000000,119.531250,1501240297.999988,
1501240298.302666,1.506460,-1.500276,-2.256338,-0.013359,-0.000552,-0.005817,0.070316,0.997514,-0.004530,-0.000675,0.035582,0.005278,13.842980,-2.727388,38.419052,,,,,,,
,,,,,,,,,,,,,,,,1.302538,103.798679,12.306335,0.000000,119.531250,1501240298.999988,
1501240299.302499,1.638196,-1.502722,-2.124969,-0.010892,-0.007889,-0.004552,0.067867,0.997684,0.004581,0.004170,0.035077,-0.000858,13.822435,-3.046627,38.402454,,,,,,,
,,,,,,,,,,,,,,,,1.302538,103.798679,12.018311,0.000000,119.531250,1501240299.999988,
1501240300.302303,1.946304,-1.500717,-1.814183,0.022337,0.015365,0.031630,0.065143,0.997545,0.025680,0.000089,0.024458,0.008088,13.917832,-3.825593,38.298157,,,,,,,
,,,,,,,,,,,,,,,,1.302538,103.798679,12.032776,0.000000,119.531250,1501240300.999987,
1501240301.302109,1.843495,-1.500815,-1.913178,-0.020747,-0.027924,-0.017989,0.067340,0.997552,0.018833,-0.004016,0.037848,-0.008747,14.049965,-3.600283,38.271744,,,,,,,
,,,,,,,,,,,,,,,,1.302538,103.798679,11.765320,0.000000,119.882812,1501240301.999987,
1501240302.301916,2.043057,-1.497638,-1.710692,0.010775,-0.000404,0.009539,0.065092,0.997325,0.033250,-0.000059,0.031606,0.005111,14.156852,-4.130300,38.178715,,,,,,,
,,,,,,,,,,,,,,,,1.302538,103.798679,13.459473,0.000000,119.882812,1501240302.999988,
1501240303.301719,1.927953,-1.497589,-1.817388,0.024089,-0.025714,0.013913,0.068526,0.997322,0.025571,0.000383,0.029122,-0.000760,14.462452,-3.916460,38.086597,,,,,,,
,,,,,,,,,,,,,,,,1.302538,103.798679,13.133362,0.000000,119.882812,1501240303.999987,
1501240304.301497,1.779953,-1.498930,-1.959438,-0.001029,-0.005892,-0.006169,0.070240,0.997419,0.014909,0.002514,0.036914,-0.000978,14.708749,-3.538152,38.029259,,,,,,,
,,,,,,,,,,,,,,,,1.302538,103.798679,12.912048,0.000000,119.882812,1501240304.999987,
1501240305.301310,1.803551,-1.500743,-1.936336,-0.007599,-0.001013,-0.003102,0.068109,0.997547,0.016145,0.001426,0.036953,0.000472,14.696168,-3.549957,38.033020,,,,,,,
,,,,,,,,,,,,,,,,1.302538,103.798679,12.733154,0.000000,119.882812,1501240305.999987,
1501240306.301104,2.112264,-1.500431,-1.634361,-0.015366,0.003722,-0.006321,0.060250,0.997525,0.036236,0.006370,0.032367,0.001774,14.443398,-4.179341,38.065880,,,,,,,
,,,,,,,,,,,,,,,,1.302538,103.798679,12.586365,0.000000,119.882812,1501240306.999989,
1501240307.300905,2.138844,-1.498113,-1.604824,0.013624,0.004719,0.002385,0.061214,0.997360,0.039068,0.002140,0.035126,0.006968,14.549308,-4.309371,38.011017,,,,,,,
,,,,,,,,,,,,,,,,1.302538,103.798679,12.530884,0.000000,119.882812,1501240307.999987,
1501240308.300718,1.873981,-1.500425,-1.860827,0.021353,-0.008099,0.009006,0.067106,0.997525,0.020993,0.001223,0.035938,0.003116,14.885105,-3.733190,37.941891,,,,,,,
,,,,,,,,,,,,,,,,1.302538,103.798679,12.764526,0.000000,119.531250,1501240308.999987,
1501240309.300545,1.639053,-1.500552,-2.091097,0.014992,-0.012260,0.002685,0.070023,0.997534,0.004787,0.000060,0.034433,-0.002498,15.070580,-3.179593,37.919098,,,,,,,
,,,,,,,,,,,,,,,,1.302510,103.798698,12.406189,0.220000,119.179688,1501240309.999987,
1501240310.300333,1.589971,-1.499399,-2.140606,0.001110,0.006056,0.003778,0.071323,0.997452,0.001368,0.000729,0.033859,0.004247,15.060376,-3.057816,37.933167,,,,,,,
,,,,,,,,,,,,,,,,1.302510,103.798698,11.610413,0.000000,119.179688,1501240310.999987,
1501240311.300156,1.577915,-1.500651,-2.147270,-0.004671,-0.021439,-0.006957,0.070086,0.997541,0.000499,0.003004,0.032809,0.003148,15.263879,-3.020300,37.854748,,,,,,,
,,,,,,,,,,,,,,,,1.302510,103.798698,11.586121,0.000000,119.179688,1501240311.999987,
1501240312.299929,1.537814,-1.500200,-2.187569,-0.000710,-0.004254,0.000351,0.070500,0.997509,-0.002326,0.003139,0.034305,0.000159,15.260167,-2.919822,37.864128,,,,,,,
,,,,,,,,,,,,,,,,1.302510,103.798698,11.565491,0.000000,119.179688,1501240312.999988,
1501240313.299745,1.530115,-1.499686,-2.198144,-0.004299,0.000288,-0.001822,0.070992,0.997473,-0.002890,0.001198,0.034555,0.000708,15.153706,-2.898698,37.908478,,,,,,,
,,,,,,,,,,,,,,,,1.302510,103.798698,11.506775,0.000000,119.179688,1501240313.999988,
1501240314.299574,1.584168,-1.499776,-2.145964,-0.002577,-0.001764,-0.001900,0.070954,0.997479,0.000949,0.003951,0.034015,-0.000003,15.077327,-3.039589,37.927898,,,,,,,
,,,,,,,,,,,,,,,,1.302510,103.798698,11.450867,0.000000,119.179688,1501240314.999988,
1501240315.299355,1.678828,-1.502278,-2.058295,-0.009096,0.009916,0.006549,0.068066,0.997653,0.007382,0.009494,0.033383,-0.000775,14.816741,-3.219261,38.015663,,,,,,,
,,,,,,,,,,,,,,,,1.302510,103.798698,11.421204,0.000000,119.179688,1501240315.999988,
1501240316.299179,1.730273,-1.499900,-2.014892,0.011033,-0.020290,0.004393,0.069938,0.997488,0.011249,-0.000282,0.033594,0.002331,14.489738,-3.381053,38.127499,,,,,,,
,,,,,,,,,,,,,,,,1.302510,103.798698,11.403748,0.000000,119.179688,1501240316.999987,
1501240317.298967,1.417783,-1.499136,-2.311951,0.008383,0.047447,0.004431,0.070763,0.997433,-0.010913,0.005150,0.035297,0.000522,15.118796,-2.585223,37.945076,,,,,,,
,,,,,,,,,,,,,,,,1.302510,103.798698,11.391724,0.000000,119.179688,1501240317.999987,
1501240318.298790,1.233572,-1.496598,-2.488353,0.009901,0.003840,0.006486,0.069955,0.997249,-0.024528,0.006705,0.036656,0.002646,15.426556,-2.082195,37.852028,,,,,,,
,,,,,,,,,,,,,,,,1.302510,103.798698,11.398010,0.000000,119.179688,1501240318.999987,
1501240319.298612,1.123278,-1.494085,-2.592036,0.002591,-0.004277,0.000124,0.069090,0.997059,-0.033163,0.002138,0.036373,-0.000025,15.684733,-1.763884,37.761990,,,,,,,
,,,,,,,,,,,,,,,,1.302510,103.798698,11.386536,0.000000,119.179688,1501240319.999986,
1501240320.298426,1.223132,-1.493313,-2.506508,-0.018641,-0.006919,0.033003,0.072774,0.997000,-0.026372,-0.008474,0.043039,-0.008235,18.202705,-4.187126,37.608944,,,,,,,
,,,,,,,,,,,,,,,,1.302510,103.798698,12.814636,0.000000,119.179688,1501240320.999988,
1501240321.298233,-3.063890,-1.141732,-0.168704,-0.125402,-0.672615,-0.183961,-0.032294,0.909356,0.414764,0.091803,-0.116738,-0.017319,30.102470,-14.640373,25.353580,,,,,,,
,,,,,,,,,,,,,,,,1.302510,103.798698,12.090393,0.000000,151.171875,1501240321.999987,
1501240322.298040,0.601053,-1.387543,2.972362,0.420680,0.472870,0.254390,0.103053,0.983256,-0.150292,-0.282664,0.153814,0.008034,11.425018,0.948678,40.396439,,,,,,,
,,,,,,,,,,,,,,,,1.302496,103.798705,11.746887,0.270000,130.429688,1501240322.999988,
1501240323.297834,-2.280116,-1.513066,0.192491,0.833592,-0.018251,-0.113993,-0.043781,0.998334,0.037580,0.091877,-0.444196,-0.408933,15.583312,-4.798333,38.696766,,,,,,,
,,,,,,,,,,,,,,,,1.302490,103.798709,11.345276,0.540000,151.171875,1501240323.999987,
1501240324.297650,-3.128797,-1.235778,-0.454289,-0.649587,0.174128,-1.467967,-0.004207,0.944404,0.328760,0.399867,1.781395,-0.571405,23.046255,-15.045619,31.714399,,,,,,,
,,,,,,,,,,,,,,,,1.302481,103.798716,10.541931,0.950000,164.531250,1501240324.999988,
1501240325.297477,-3.063365,-1.238631,-0.322291,1.745917,-0.886794,1.922238,-0.025483,0.945338,0.325094,0.215226,-0.608745,0.066981,25.393929,-13.994783,30.374292,,,,,,,
,,,,,,,,,,,,,,,,1.302469,103.798721,10.373901,0.950000,165.234375,1501240325.999987,
1501240326.297267,-3.058495,-0.987350,-0.365608,-1.266961,-3.196657,-0.844318,-0.045726,0.834569,0.549002,0.099101,-0.640798,-0.568289,22.440519,-20.830666,28.736908,,,,,,,
,,,,,,,,,,,,,,,,1.302459,103.798728,11.986450,0.980000,149.414062,1501240326.999988,
1501240327.297092,-2.858073,-1.366402,-0.566201,-1.950198,3.425783,-0.095450,-0.056779,0.979184,0.194871,0.569551,0.881457,-0.182755,10.285474,-10.186363,39.417641,,,,,,,
,,,,,,,,,,,,,,,,1.302449,103.798738,11.377625,1.350000,149.414062,1501240327.999988,
1501240328.296893,1.798820,-1.515432,-2.089039,0.042501,1.144663,0.268922,0.053903,0.998468,0.012509,-0.217417,0.028876,-0.014004,12.590483,-4.993360,39.747318,,,,,,,
,,,,,,,,,,,,,,,,1.302441,103.798745,11.192932,1.350000,149.414062,1501240328.999988,
1501240329.296685,2.239571,-1.491144,-1.693484,0.578804,-0.282044,-0.247785,0.062428,0.996829,0.049334,-0.156437,0.076687,-0.299197,10.151113,-6.619103,40.205044,,,,,,,
,,,,,,,,,,,,,,,,1.302441,103.798745,10.516724,0.000000,149.414062,1501240329.999987,
1501240330.296518,1.064524,-1.454315,-2.791039,-0.009184,0.083369,0.004042,0.101639,0.993224,-0.056356,0.009124,0.033571,0.002981,13.326470,-2.969111,39.710110,,,,,,,
,,,,,,,,,,,,,,,,1.302441,103.798745,10.935059,0.000000,149.414062,1501240330.999987,
1501240331.296319,1.122820,-1.465014,-2.731771,0.015846,-0.014809,0.006062,0.095166,0.994410,-0.045733,0.002444,0.035176,-0.006177,13.322858,-3.339471,39.681892,,,,,,,
,,,,,,,,,,,,,,,,1.302441,103.798745,11.368408,0.000000,149.414062,1501240331.999987,
1501240332.296135,1.193019,-1.470834,-2.647568,-0.030873,-0.007242,-0.015136,0.092759,0.995008,-0.036810,-0.000474,0.034640,0.001852,13.877583,-3.694767,39.459656,,,,,,,
,,,,,,,,,,,,,,,,1.302441,103.798745,11.706482,0.000000,149.414062,1501240332.999988,
1501240333.295943,1.270314,-1.481786,-2.560002,0.004211,-0.015988,0.000704,0.084910,0.996041,-0.026311,0.001211,0.034064,-0.003780,14.290577,-4.049489,39.277023,,,,,,,
,,,,,,,,,,,,,,,,1.302441,103.798745,11.620483,0.000000,149.414062,1501240333.999988,
1501240334.295758,1.148879,-1.476604,-2.661568,0.003331,0.000025,-0.002449,0.085805,0.995567,-0.038516,0.003856,0.032601,-0.004911,15.086077,-3.660571,39.016838,,,,,,,
,,,,,,,,,,,,,,,,1.302441,103.798745,11.558777,0.000000,149.414062,1501240334.999987,
1501240335.295579,1.121183,-1.477592,-2.681974,-0.000881,-0.021903,-0.000242,0.083819,0.995660,-0.040449,-0.000323,0.031684,-0.003694,15.375151,-3.581989,38.911148,,,,,,,
,,,,,,,,,,,,,,,,1.302441,103.798745,11.513550,0.000000,149.414062,1501240335.999987,
1501240336.295374,1.251111,-1.484251,-2.568416,-0.025960,0.058052,-0.004285,0.082058,0.996257,-0.027164,-0.010845,0.030720,0.007786,14.754229,-3.996488,39.110664,,,,,,,
,,,,,,,,,,,,,,,,1.302441,103.798745,11.486084,0.000000,149.414062,1501240336.999987,
1501240337.295194,1.578384,-1.490917,-2.266703,0.001480,-0.047078,-0.004211,0.079792,0.996811,0.000605,0.015469,0.031829,-0.012904,13.691243,-4.981624,39.383202,,,,,,,
,,,,,,,,,,,,,,,,1.302441,103.798745,11.409668,0.000000,149.414062,1501240337.999987,
1501240338.295004,1.334986,-1.474891,-2.503090,0.016504,-0.061095,0.003251,0.093108,0.995405,-0.022372,0.005784,0.030383,-0.004789,13.937695,-4.291406,39.378014,,,,,,,
,,,,,,,,,,,,,,,,1.302441,103.798745,12.084351,0.000000,149.414062,1501240338.999987,
1501240339.294809,1.344923,-1.482234,-2.462363,-0.016513,0.053915,-0.007159,0.086200,0.996081,-0.019808,0.011777,0.030012,-0.004713,15.207941,-4.393555,38.893684,,,,,,,
,,,,,,,,,,,,,,,,1.302441,103.798745,11.990662,0.000000,149.414062,1501240339.999987,
1501240340.294617,1.359984,-1.488376,-2.461555,-0.025266,0.001819,-0.006135,0.080504,0.996605,-0.017227,0.002778,0.036048,-0.004776,14.645480,-4.367023,39.111919,,,,,,,
,,,,,,,,,,,,,,,,1.302441,103.798745,11.913147,0.000000,149.414062,1501240340.999988,
1501240341.294416,1.494314,-1.491408,-2.331009,-0.008931,0.015479,-0.005007,0.079073,0.996850,-0.006060,0.005735,0.031760,-0.003386,14.496121,-4.772786,39.120152,,,,,,,
,,,,,,,,,,,,,,,,1.302441,103.798745,11.836121,0.000000,149.414062,1501240341.999987,
1501240342.294234,1.522306,-1.491656,-2.309942,0.002935,0.006753,-0.002837,0.078965,0.996870,-0.003832,0.004546,0.032961,0.001742,14.217486,-4.834177,39.214756,,,,,,,
,,,,,,,,,,,,,,,,1.302441,103.798745,11.733765,0.000000,149.414062,1501240342.999987,
1501240343.294028,1.410578,-1.487840,-2.423258,0.011752,-0.003259,0.002548,0.081800,0.996561,-0.013219,-0.001187,0.032782,-0.000834,14.151993,-4.508379,39.277206,,,,,,,
,,,,,,,,,,,,,,,,1.302441,103.798745,11.662781,0.000000,149.414062,1501240343.999988,
1501240344.293861,1.358091,-1.488208,-2.473930,-0.002071,-0.006691,0.001452,0.080636,0.996592,-0.017415,0.001823,0.035071,-0.000712,14.235165,-4.327029,39.267548,,,,,,,
,,,,,,,,,,,,,,,,1.302441,103.798745,12.456116,0.000000,149.414062,1501240344.999987,
1501240345.293641,1.561828,-1.482906,-2.290800,0.015770,0.046239,0.093708,0.087773,0.996140,-0.000787,-0.039861,0.028350,0.008081,13.415824,-5.008168,39.474514,,,,,,,
,,,,,,,,,,,,,,,,1.302441,103.798745,12.104187,0.000000,149.414062,1501240345.999988,
1501240346.293475,-3.126340,-1.264867,-0.295407,-0.156783,1.821001,0.409130,-0.004593,0.953568,0.301144,0.385483,0.681305,-0.092663,28.382153,-12.797010,28.177887,,,,,,,
,,,,,,,,,,,,,,,,1.302441,103.798745,11.966675,0.000000,149.414062,1501240346.999988,
1501240347.293258,-3.037043,-1.095690,-0.346081,1.908346,-0.267575,-0.209996,-0.047737,0.889244,0.454936,0.231850,-0.582451,-0.343180,23.853014,-14.746096,29.754538,,,,,,,
,,,,,,,,,,,,,,,,1.302419,103.798755,12.016663,1.140000,130.781250,1501240347.999988,
1501240348.293073,-3.020388,-1.181253,-0.645170,-3.126452,-2.345165,-2.087655,-0.045917,0.925082,0.376980,-0.317685,0.500714,-0.233548,10.389313,-13.146528,37.295803,,,,,,,
,,,,,,,,,,,,,,,,1.302409,103.798765,12.633362,1.140000,134.296875,1501240348.999988,
1501240349.292897,-2.764807,-1.479609,-0.435802,-2.069945,-0.089038,-1.718522,-0.033505,0.995845,0.084674,0.346386,0.656666,-0.159777,10.188128,-3.084092,39.477039,,,,,,,
,,,,,,,,,,,,,,,,1.302396,103.798776,12.899780,1.240000,138.867188,1501240349.999988,
1501240350.292706,0.674770,-1.362987,2.745493,0.049825,0.200030,0.280420,0.128890,0.978485,-0.161102,-0.417281,0.449142,0.235535,0.130134,6.227576,40.409733,,,,,,,
,,,,,,,,,,,,,,,,1.302384,103.798783,13.590271,1.160000,152.578125,1501240350.999988,
1501240351.292511,-0.866258,-1.549242,1.379576,0.892136,1.144647,0.406001,-0.016421,0.999768,-0.013959,0.050891,0.027973,0.089490,7.338102,-0.063883,40.223057,,,,,,,
,,,,,,,,,,,,,,,,1.302373,103.798789,13.598511,1.430000,153.984375,1501240351.999987,
1501240352.292301,2.966696,-1.353891,-0.756537,0.791752,0.687255,0.679907,0.037448,0.976568,0.211925,0.175641,0.882593,-0.132061,18.941399,-8.846081,35.138531,,,,,,,
,,,,,,,,,,,,,,,,1.302362,103.798797,13.266113,1.160000,153.984375,1501240352.999988,
1501240353.292133,1.347540,-1.513411,-2.499176,0.140407,0.144986,0.197421,0.055931,0.998354,-0.012699,-0.035346,0.023710,-0.035962,16.928032,-3.753135,38.096230,,,,,,,
,,,,,,,,,,,,,,,,1.302362,103.798797,12.919067,0.000000,153.984375,1501240353.999988,
1501240354.291932,1.136375,-1.475987,-2.717160,-0.052626,-0.011462,-0.019055,0.085874,0.995509,-0.039844,0.004733,0.040746,-0.004040,16.470921,-3.151670,38.350262,,,,,,,
,,,,,,,,,,,,,,,,1.302362,103.798797,12.347046,0.000000,153.984375,1501240354.999988,
1501240355.291768,1.339330,-1.494044,-2.525276,0.009057,-0.020450,-0.003259,0.074632,0.997056,-0.017590,0.001540,0.034881,0.001584,16.060659,-3.801021,38.465237,,,,,,,
,,,,,,,,,,,,,,,,1.302362,103.798797,11.830994,0.000000,153.984375,1501240355.999987,
1501240356.291589,1.248357,-1.496297,-2.608236,-0.012154,0.002750,-0.003276,0.070595,0.997226,-0.023586,0.002815,0.034298,0.000926,16.396120,-3.527989,38.349545,,,,,,,
,,,,,,,,,,,,,,,,1.302362,103.798797,11.946167,0.000000,153.984375,1501240356.999988,
1501240357.291415,1.376439,-1.501488,-2.480470,0.000407,0.001335,0.000965,0.067949,0.997599,-0.013375,0.003325,0.036184,-0.000251,16.381922,-3.876163,38.321991,,,,,,,
1501240358.291244,1.313749,-1.497660,-2.544669,-0.001729,0.007677,-0.002176,0.070670,0.997327,-0.018576,0.001733,0.034732,-0.003106,16.321955,-3.717314,38.363293,,,,,,,
1501240359.626029,1.369023,-1.502656,-2.490325,0.001369,-0.008314,0.002059,0.066706,0.997679,-0.013645,-0.001734,0.037629,0.002216,16.289049,-3.839179,38.365276,,,,,,,
1501240365.510036,1.415721,-1.502570,-2.443215,-0.000733,0.002347,0.005252,0.067355,0.997673,-0.010530,0.001675,0.036949,0.011857,16.304586,-3.958367,38.346561,,,,,,,
,,,,,,,,,,,,,,,,1.302362,103.798797,11.793213,0.000000,153.984375,1501240357.999988,
1501240366.614850,1.426950,-1.500658,-2.429115,0.009850,-0.009426,-0.001138,0.069357,0.997541,-0.010046,0.007105,0.036577,0.000082,16.395985,-4.033224,38.299763,,,,,,,
1501240367.829659,1.273055,-1.498617,-2.581023,0.015083,-0.033949,-0.002220,0.068944,0.997396,-0.021156,0.000132,0.037379,-0.017708,16.461840,-3.647509,38.310188,,,,,,,
1501240368.829477,1.109253,-1.490094,-2.734924,-0.013391,-0.000821,0.001116,0.072180,0.996745,-0.035900,0.001978,0.034779,-0.002338,16.878448,-3.123574,38.174969,,,,,,,
,,,,,,,,,,,,,,,,1.302362,103.798797,11.516846,0.000000,153.984375,1501240358.999988,
1501240370.059313,1.206914,-1.494678,-2.640451,-0.000580,-0.000896,-0.005272,0.071065,0.997104,-0.027065,-0.004385,0.036465,0.002818,16.749245,-3.432556,38.205330,,,,,,,
1501240371.219123,1.230340,-1.496529,-2.617065,-0.002682,0.009763,0.000043,0.069941,0.997243,-0.024777,0.000585,0.034235,0.004238,16.759314,-3.492223,38.195507,,,,,,,
,,,,,,,,,,,,,,,,1.302362,103.798797,11.489929,0.000000,153.984375,1501240359.999988,
,,,,,,,,,,,,,,,,1.302362,103.798797,11.450378,0.000000,153.984375,1501240360.999988,
,,,,,,,,,,,,,,,,1.302362,103.798797,11.398621,0.000000,153.984375,1501240361.999988,
,,,,,,,,,,,,,,,,1.302362,103.798797,11.346375,0.000000,153.984375,1501240362.999988,
,,,,,,,,,,,,,,,,1.302362,103.798797,11.884338,0.000000,153.984375,1501240363.999987,
,,,,,,,,,,,,,,,,1.302362,103.798797,11.638733,0.000000,153.984375,1501240364.999988,
,,,,,,,,,,,,,,,,1.302350,103.798809,11.532837,1.350000,189.492188,1501240365.999988,
,,,,,,,,,,,,,,,,1.302350,103.798809,11.425476,0.000000,189.492188,1501240366.997390,
,,,,,,,,,,,,,,,,1.302350,103.798809,11.401794,0.000000,189.492188,1501240367.995020,
,,,,,,,,,,,,,,,,1.302350,103.798809,11.374634,0.000000,189.492188,1501240368.995020,
,,,,,,,,,,,,,,,,1.302350,103.798809,11.363464,0.000000,189.492188,1501240369.995020,
,,,,,,,,,,,,,,,,1.302350,103.798809,11.880493,0.000000,189.492188,1501240370.995020,
,,,,,,,,,,,,,,,,1.302350,103.798809,11.723022,0.000000,189.492188,1501240371.995021,
1501240372.218991,1.306181,-1.502576,-2.545277,0.010626,0.004923,0.000021,0.065795,0.997674,-0.017828,0.001970,0.033530,-0.001505,16.604025,-3.689519,38.244751,,,,,,,
,,,,,,,,,,,,,,,,1.302350,103.798809,11.740967,0.000000,189.492188,1501240372.995021,
1501240373.218843,1.294209,-1.503980,-2.558337,0.002432,0.002355,-0.000961,0.064229,0.997769,-0.018232,0.002085,0.036426,0.000700,16.569227,-3.641931,38.264397,,,,,,,
,,,,,,,,,,,,,,,,1.302350,103.798809,11.707764,0.000000,189.492188,1501240373.995021,
1501240374.218713,1.226872,-1.498781,-2.626781,0.017459,-0.017171,0.008705,0.067740,0.997408,-0.024262,0.005350,0.037947,-0.000641,16.514177,-3.470481,38.304111,,,,,,,
,,,,,,,,,,,,,,,,1.302350,103.798809,11.660095,0.000000,189.492188,1501240374.995019,
1501240375.218579,1.089476,-1.488801,-2.759353,0.007872,-0.003553,0.001305,0.072598,0.996640,-0.037917,-0.001843,0.039111,-0.000703,16.702244,-3.041910,38.258972,,,,,,,
,,,,,,,,,,,,,,,,1.302350,103.798809,11.600464,0.000000,189.492188,1501240375.995021,
1501240376.218432,1.105250,-1.491541,-2.739702,-0.012911,-0.001296,-0.001000,0.070747,0.996861,-0.035541,0.003625,0.039333,-0.001675,16.854084,-3.103199,38.187393,,,,,,,
,,,,,,,,,,,,,,,,1.302350,103.798809,12.124146,0.000000,189.492188,1501240376.995021,
1501240377.218298,1.265861,-1.499292,-2.586668,0.001546,0.004112,-0.002262,0.068148,0.997445,-0.021450,0.001051,0.035408,0.000469,16.558628,-3.583928,38.274460,,,,,,,
,,,,,,,,,,,,,,,,1.302350,103.798809,11.840759,0.000000,189.492188,1501240377.995021,
1501240378.218160,1.220439,-1.500047,-2.632360,0.001544,-0.001219,-0.002262,0.066396,0.997498,-0.024263,0.002391,0.035064,0.002291,16.557718,-3.444471,38.287655,,,,,,,
,,,,,,,,,,,,,,,,1.302350,103.798809,11.711243,0.000000,189.492188,1501240378.995021,
1501240379.218038,1.880650,-1.529484,-1.962501,-0.217323,0.055321,-0.059205,0.039334,0.999147,0.012593,-0.068554,0.051848,0.045466,17.017664,-4.316523,37.996494,,,,,,,
,,,,,,,,,,,,,,,,1.302350,103.798809,12.086853,0.000000,152.226562,1501240379.995020,
1501240380.217879,-2.987506,-1.323850,-0.535496,2.300158,2.557256,0.056233,-0.037517,0.969663,0.241548,-0.343541,0.139956,-0.355745,18.842392,-12.486780,35.227993,,,,,,,
,,,,,,,,,,,,,,,,1.302350,103.798809,12.061951,0.000000,191.953125,1501240380.995020,
1501240381.217755,3.114196,-1.249900,-0.530015,0.302785,-0.097297,1.293077,0.008640,0.948953,0.315298,0.153027,-0.053506,0.277719,24.327332,-13.890314,31.099957,,,,,,,
,,,,,,,,,,,,,,,,1.302350,103.798809,14.840515,0.000000,206.015625,1501240381.995021,
1501240382.217599,-3.049518,-0.995648,-0.370641,-0.607726,-2.491326,-0.623781,-0.050014,0.839111,0.541655,0.043636,-0.861923,-0.587462,25.444609,-19.260288,27.084682,,,,,,,
,,,,,,,,,,,,,,,,1.302332,103.798846,15.221313,1.070000,189.140625,1501240382.995020,
1501240383.217461,-2.931589,-1.273606,-0.613091,-2.301257,-4.160216,-1.039468,-0.061045,0.956163,0.286401,0.168132,0.024443,-0.711755,12.090550,-13.409986,37.761856,,,,,,,
,,,,,,,,,,,,,,,,1.302320,103.798861,15.345032,1.070000,198.984375,1501240383.995020,
1501240384.217312,0.532617,-1.509140,2.811671,-3.165487,-2.498161,-1.478070,0.031289,0.998100,-0.053082,-0.183571,-0.091453,-0.304538,10.241014,-0.897572,40.574409,,,,,,,
,,,,,,,,,,,,,,,,1.302313,103.798874,14.621521,0.990000,202.500000,1501240384.995020,
1501240385.217134,0.460055,-1.396608,2.613767,0.629097,0.374620,0.726818,0.076949,0.984868,-0.155290,-0.162611,0.005596,0.130082,5.853494,2.530803,41.367847,,,,,,,
,,,,,,,,,,,,,,,,1.302300,103.798888,14.129883,0.990000,201.093750,1501240385.995021,
1501240386.217018,2.762217,-1.350838,-0.778429,1.147426,1.501079,1.184377,0.080804,0.975907,0.202675,-0.025628,-0.542786,-0.966377,27.380341,-11.759928,29.393675,,,,,,,
,,,,,,,,,,,,,,,,1.302294,103.798890,14.542786,0.990000,201.093750,1501240386.995020,
1501240387.216872,0.996772,-1.483951,-2.815721,0.053141,0.063021,0.063821,0.072834,0.996231,-0.047099,0.026714,0.027252,0.028193,18.097424,-2.826439,37.635906,,,,,,,
,,,,,,,,,,,,,,,,1.302291,103.798891,14.541077,0.420000,201.093750,1501240387.995020,
